{
"type": "FeatureCollection",
"crs": { "type": "name", "properties": { "name": "urn:ogc:def:crs:OGC:1.3:CRS84" } },
"bbox": [ -80.4914297509999, 25.4194064500001, -79.7691314159999, 32.975962495 ],                                                 
"features": [
{ "type": "Feature", "properties": { "OBJECTID": 6599, "ID": "2094", "NAME": "TRIDENT MEDICAL CENTER", "ADDRESS": "9330 MEDICAL PLAZA DR", "ADDRESS2": "NOT AVAILABLE", "CITY": "N CHARLESTON", "STATE": "SC", "ZIP": "29406", "ZIP4": "NOT AVAILABLE", "TELEPHONE": "(843) 847-4100", "TYPE": "GENERAL ACUTE CARE", "STATUS": "OPEN", "POPULATION": 313, "COUNTY": "CHARLESTON", "COUNTYFIPS": "45019", "COUNTRY": "USA", "LATITUDE": 32.975962494999997, "LONGITUDE": -80.073075109000001, "NAICS_CODE": "622110", "NAICS_DESC": "GENERAL MEDICAL AND SURGICAL HOSPITALS", "SOURCE": "http:\/\/www.scdhec.gov\/Health\/FHPF\/HealthFacilityRegulationsLicensing\/HealthcareFacilityLicensing\/LicensedFacilitiesbyType\/", "SOURCEDATE": "2016-10-21T00:00:00.000Z", "VAL_METHOD": "IMAGERY WITH OTHER", "VAL_DATE": "2014-02-10T00:00:00.000Z", "WEBSITE": "http:\/\/www.tridenthealthsystem.com", "STATE_ID": "38782423", "ALT_NAME": "NOT AVAILABLE", "ST_FIPS": "45", "OWNER": "PROPRIETARY", "TTL_STAFF": -999, "BEDS": 313, "TRAUMA": "III", "HELIPAD": "Y", "DATECREATE": "2013-03-08T00:00:00.000Z", "Category_1": -9999, "Category_2": -9999, "Category_3": -9999, "Category_4": -9999, "Category_5": -9999, "Low_Cat": null }, "bbox": [ -80.07307510899993019, 32.97596249500002585, -80.07307510899993019, 32.97596249500002585 ], "geometry": { "type": "Point", "coordinates": [ -80.07307510899993019, 32.97596249500002585 ] } },
{ "type": "Feature", "properties": { "OBJECTID": 6662, "ID": "2157", "NAME": "HEALTHSOUTH REHABILITATION HOSPITAL OF CHARLESTON", "ADDRESS": "9181 MEDCOM ST", "ADDRESS2": "NOT AVAILABLE", "CITY": "NORTH CHARLESTON", "STATE": "SC", "ZIP": "29406", "ZIP4": "NOT AVAILABLE", "TELEPHONE": "(843) 820-7762", "TYPE": "REHABILITATION", "STATUS": "OPEN", "POPULATION": 46, "COUNTY": "CHARLESTON", "COUNTYFIPS": "45019", "COUNTRY": "USA", "LATITUDE": 32.975799318999997, "LONGITUDE": -80.069978430999996, "NAICS_CODE": "622210", "NAICS_DESC": "REHABILITATION HOSPITALS (EXCEPT ALCOHOLISM, DRUG ADDICTION)", "SOURCE": "http:\/\/www.scdhec.gov\/Health\/FHPF\/HealthFacilityRegulationsLicensing\/HealthcareFacilityLicensing\/LicensedFacilitiesbyType\/", "SOURCEDATE": "2016-10-21T00:00:00.000Z", "VAL_METHOD": "IMAGERY WITH OTHER", "VAL_DATE": "2013-10-03T00:00:00.000Z", "WEBSITE": "http:\/\/www.healthsouthcharleston.com", "STATE_ID": "38784738", "ALT_NAME": "NOT AVAILABLE", "ST_FIPS": "45", "OWNER": "PROPRIETARY", "TTL_STAFF": -999, "BEDS": 46, "TRAUMA": "NOT AVAILABLE", "HELIPAD": "NOT AVAILABLE", "DATECREATE": "2013-03-08T00:00:00.000Z", "Category_1": -9999, "Category_2": -9999, "Category_3": -9999, "Category_4": -9999, "Category_5": -9999, "Low_Cat": null }, "bbox": [ -80.06997843099998136, 32.97579931900003203, -80.06997843099998136, 32.97579931900003203 ], "geometry": { "type": "Point", "coordinates": [ -80.06997843099998136, 32.97579931900003203 ] } },
{ "type": "Feature", "properties": { "OBJECTID": 6609, "ID": "2104", "NAME": "MOUNT PLEASANT HOSPITAL", "ADDRESS": "3500 HWY 17 N", "ADDRESS2": "NOT AVAILABLE", "CITY": "MOUNT PLEASANT", "STATE": "SC", "ZIP": "29466", "ZIP4": "NOT AVAILABLE", "TELEPHONE": "(843) 724-2954", "TYPE": "GENERAL ACUTE CARE", "STATUS": "OPEN", "POPULATION": 85, "COUNTY": "CHARLESTON", "COUNTYFIPS": "45019", "COUNTRY": "USA", "LATITUDE": 32.877829305, "LONGITUDE": -79.769131415999993, "NAICS_CODE": "622110", "NAICS_DESC": "GENERAL MEDICAL AND SURGICAL HOSPITALS", "SOURCE": "http:\/\/www.scdhec.gov\/Health\/FHPF\/HealthFacilityRegulationsLicensing\/HealthcareFacilityLicensing\/LicensedFacilitiesbyType\/", "SOURCEDATE": "2016-10-21T00:00:00.000Z", "VAL_METHOD": "IMAGERY WITH OTHER", "VAL_DATE": "2014-02-10T00:00:00.000Z", "WEBSITE": "http:\/\/www.mymountpleasanthospital.com", "STATE_ID": "67014566", "ALT_NAME": "NOT AVAILABLE", "ST_FIPS": "45", "OWNER": "NON-PROFIT", "TTL_STAFF": -999, "BEDS": 85, "TRAUMA": "NOT AVAILABLE", "HELIPAD": "Y", "DATECREATE": "2013-03-08T00:00:00.000Z", "Category_1": -9999, "Category_2": -9999, "Category_3": -9999, "Category_4": 2, "Category_5": 7, "Low_Cat": 4 }, "bbox": [ -79.76913141599993651, 32.8778293050000272, -79.76913141599993651, 32.8778293050000272 ], "geometry": { "type": "Point", "coordinates": [ -79.76913141599993651, 32.8778293050000272 ] } },
{ "type": "Feature", "properties": { "OBJECTID": 6606, "ID": "2101", "NAME": "EAST COOPER MEDICAL CENTER", "ADDRESS": "2000 HOSPITAL DR", "ADDRESS2": "NOT AVAILABLE", "CITY": "MOUNT PLEASANT", "STATE": "SC", "ZIP": "29464", "ZIP4": "NOT AVAILABLE", "TELEPHONE": "(843) 416-6210", "TYPE": "GENERAL ACUTE CARE", "STATUS": "OPEN", "POPULATION": 130, "COUNTY": "CHARLESTON", "COUNTYFIPS": "45019", "COUNTRY": "USA", "LATITUDE": 32.821180866, "LONGITUDE": -79.850553517999998, "NAICS_CODE": "622110", "NAICS_DESC": "GENERAL MEDICAL AND SURGICAL HOSPITALS", "SOURCE": "http:\/\/www.scdhec.gov\/Health\/FHPF\/HealthFacilityRegulationsLicensing\/HealthcareFacilityLicensing\/LicensedFacilitiesbyType\/", "SOURCEDATE": "2016-10-21T00:00:00.000Z", "VAL_METHOD": "IMAGERY WITH OTHER", "VAL_DATE": "2014-02-10T00:00:00.000Z", "WEBSITE": "http:\/\/www.eastcoopermedctr.com", "STATE_ID": "38783785", "ALT_NAME": "NOT AVAILABLE", "ST_FIPS": "45", "OWNER": "PROPRIETARY", "TTL_STAFF": -999, "BEDS": 130, "TRAUMA": "III", "HELIPAD": "Y", "DATECREATE": "2013-03-08T00:00:00.000Z", "Category_1": -9999, "Category_2": -9999, "Category_3": -9999, "Category_4": 4, "Category_5": 9, "Low_Cat": 4 }, "bbox": [ -79.8505535179999697, 32.82118086600006279, -79.8505535179999697, 32.82118086600006279 ], "geometry": { "type": "Point", "coordinates": [ -79.8505535179999697, 32.82118086600006279 ] } },
{ "type": "Feature", "properties": { "OBJECTID": 6648, "ID": "2143", "NAME": "PALMETTO LOWCOUNTRY BEHAVIORAL HEALTH", "ADDRESS": "2777 SPEISSEGGER DR", "ADDRESS2": "NOT AVAILABLE", "CITY": "NORTH CHARLESTON", "STATE": "SC", "ZIP": "29405", "ZIP4": "NOT AVAILABLE", "TELEPHONE": "(843) 747-5830", "TYPE": "PSYCHIATRIC", "STATUS": "OPEN", "POPULATION": 112, "COUNTY": "CHARLESTON", "COUNTYFIPS": "45019", "COUNTRY": "USA", "LATITUDE": 32.839647956999997, "LONGITUDE": -79.975052352999995, "NAICS_CODE": "622210", "NAICS_DESC": "HOSPITALS, PSYCHIATRIC (EXCEPT CONVALESCENT)", "SOURCE": "http:\/\/www.scdhec.gov\/Health\/FHPF\/HealthFacilityRegulationsLicensing\/HealthcareFacilityLicensing\/LicensedFacilitiesbyType\/", "SOURCEDATE": "2016-10-21T00:00:00.000Z", "VAL_METHOD": "IMAGERY", "VAL_DATE": "2014-02-10T00:00:00.000Z", "WEBSITE": "http:\/\/www.palmettobehavioralhealth.com", "STATE_ID": "38780797", "ALT_NAME": "NOT AVAILABLE", "ST_FIPS": "45", "OWNER": "PROPRIETARY", "TTL_STAFF": -999, "BEDS": 112, "TRAUMA": "NOT AVAILABLE", "HELIPAD": "NOT AVAILABLE", "DATECREATE": "2013-03-08T00:00:00.000Z", "Category_1": 1, "Category_2": 6, "Category_3": 11, "Category_4": 14, "Category_5": 19, "Low_Cat": 1 }, "bbox": [ -79.97505235299996684, 32.83964795700006079, -79.97505235299996684, 32.83964795700006079 ], "geometry": { "type": "Point", "coordinates": [ -79.97505235299996684, 32.83964795700006079 ] } },
{ "type": "Feature", "properties": { "OBJECTID": 6600, "ID": "2095", "NAME": "ROPER HOSPITAL", "ADDRESS": "316 CALHOUN ST", "ADDRESS2": "NOT AVAILABLE", "CITY": "CHARLESTON", "STATE": "SC", "ZIP": "29401", "ZIP4": "NOT AVAILABLE", "TELEPHONE": "(843) 724-2901", "TYPE": "GENERAL ACUTE CARE", "STATUS": "OPEN", "POPULATION": 368, "COUNTY": "CHARLESTON", "COUNTYFIPS": "45019", "COUNTRY": "USA", "LATITUDE": 32.782793918000003, "LONGITUDE": -79.949276415, "NAICS_CODE": "622110", "NAICS_DESC": "GENERAL MEDICAL AND SURGICAL HOSPITALS", "SOURCE": "http:\/\/www.scdhec.gov\/Health\/FHPF\/HealthFacilityRegulationsLicensing\/HealthcareFacilityLicensing\/LicensedFacilitiesbyType\/", "SOURCEDATE": "2016-10-21T00:00:00.000Z", "VAL_METHOD": "IMAGERY WITH OTHER", "VAL_DATE": "2014-02-10T00:00:00.000Z", "WEBSITE": "http:\/\/www.ropersaintfrancis.com", "STATE_ID": "38785221", "ALT_NAME": "NOT AVAILABLE", "ST_FIPS": "45", "OWNER": "NON-PROFIT", "TTL_STAFF": -999, "BEDS": 368, "TRAUMA": "III", "HELIPAD": "NOT AVAILABLE", "DATECREATE": "2013-03-08T00:00:00.000Z", "Category_1": -9999, "Category_2": 5, "Category_3": 9, "Category_4": 13, "Category_5": 18, "Low_Cat": 2 }, "bbox": [ -79.94927641499997151, 32.7827939180000314, -79.94927641499997151, 32.7827939180000314 ], "geometry": { "type": "Point", "coordinates": [ -79.94927641499997151, 32.7827939180000314 ] } },
{ "type": "Feature", "properties": { "OBJECTID": 6604, "ID": "2099", "NAME": "MUSC MEDICAL CENTER", "ADDRESS": "169 ASHLEY AVE", "ADDRESS2": "NOT AVAILABLE", "CITY": "CHARLESTON", "STATE": "SC", "ZIP": "29425", "ZIP4": "NOT AVAILABLE", "TELEPHONE": "(843) 792-4000", "TYPE": "GENERAL ACUTE CARE", "STATUS": "OPEN", "POPULATION": 713, "COUNTY": "CHARLESTON", "COUNTYFIPS": "45019", "COUNTRY": "USA", "LATITUDE": 32.785882041000001, "LONGITUDE": -79.947921358000002, "NAICS_CODE": "622110", "NAICS_DESC": "GENERAL MEDICAL AND SURGICAL HOSPITALS", "SOURCE": "http:\/\/www.scdhec.gov\/Health\/FHPF\/HealthFacilityRegulationsLicensing\/HealthcareFacilityLicensing\/LicensedFacilitiesbyType\/", "SOURCEDATE": "2016-10-21T00:00:00.000Z", "VAL_METHOD": "IMAGERY WITH OTHER", "VAL_DATE": "2014-03-12T00:00:00.000Z", "WEBSITE": "http:\/\/www.muschealth.com", "STATE_ID": "38783366", "ALT_NAME": "NOT AVAILABLE", "ST_FIPS": "45", "OWNER": "GOVERNMENT - DISTRICT\/AUTHORITY", "TTL_STAFF": -999, "BEDS": 713, "TRAUMA": "I", "HELIPAD": "Y", "DATECREATE": "2013-03-08T00:00:00.000Z", "Category_1": -9999, "Category_2": 4, "Category_3": 8, "Category_4": 12, "Category_5": 16, "Low_Cat": 2 }, "bbox": [ -79.94792135799998789, 32.78588204100003622, -79.94792135799998789, 32.78588204100003622 ], "geometry": { "type": "Point", "coordinates": [ -79.94792135799998789, 32.78588204100003622 ] } },
{ "type": "Feature", "properties": { "OBJECTID": 6605, "ID": "2100", "NAME": "BON SECOURS-ST FRANCIS XAVIER HOSPITAL", "ADDRESS": "2095 HENRY TECKLENBURG DR", "ADDRESS2": "NOT AVAILABLE", "CITY": "CHARLESTON", "STATE": "SC", "ZIP": "29414", "ZIP4": "NOT AVAILABLE", "TELEPHONE": "(843) 402-1000", "TYPE": "GENERAL ACUTE CARE", "STATUS": "OPEN", "POPULATION": 204, "COUNTY": "CHARLESTON", "COUNTYFIPS": "45019", "COUNTRY": "USA", "LATITUDE": 32.808371067000003, "LONGITUDE": -80.042457693000003, "NAICS_CODE": "622110", "NAICS_DESC": "GENERAL MEDICAL AND SURGICAL HOSPITALS", "SOURCE": "http:\/\/www.scdhec.gov\/Health\/FHPF\/HealthFacilityRegulationsLicensing\/HealthcareFacilityLicensing\/LicensedFacilitiesbyType\/", "SOURCEDATE": "2016-10-21T00:00:00.000Z", "VAL_METHOD": "IMAGERY WITH OTHER", "VAL_DATE": "2014-02-10T00:00:00.000Z", "WEBSITE": "http:\/\/www.ropersaintfrancis.com", "STATE_ID": "38784893", "ALT_NAME": "NOT AVAILABLE", "ST_FIPS": "45", "OWNER": "NON-PROFIT", "TTL_STAFF": -999, "BEDS": 204, "TRAUMA": "III", "HELIPAD": "NOT AVAILABLE", "DATECREATE": "2013-03-08T00:00:00.000Z", "Category_1": -9999, "Category_2": 5, "Category_3": 10, "Category_4": 14, "Category_5": 19, "Low_Cat": 2 }, "bbox": [ -80.04245769299996027, 32.80837106700004568, -80.04245769299996027, 32.80837106700004568 ], "geometry": { "type": "Point", "coordinates": [ -80.04245769299996027, 32.80837106700004568 ] } },
{ "type": "Feature", "properties": { "OBJECTID": 6611, "ID": "2106", "NAME": "CITADEL INFIRMARY", "ADDRESS": "171 MOULTRIE ST", "ADDRESS2": "NOT AVAILABLE", "CITY": "CHARLESTON", "STATE": "SC", "ZIP": "29409", "ZIP4": "NOT AVAILABLE", "TELEPHONE": "(843) 953-6847", "TYPE": "GENERAL ACUTE CARE", "STATUS": "OPEN", "POPULATION": 38, "COUNTY": "CHARLESTON", "COUNTYFIPS": "45019", "COUNTRY": "USA", "LATITUDE": 32.795721266999998, "LONGITUDE": -79.959673426999998, "NAICS_CODE": "622110", "NAICS_DESC": "GENERAL MEDICAL AND SURGICAL HOSPITALS", "SOURCE": "http:\/\/www.scdhec.gov\/Health\/FHPF\/HealthFacilityRegulationsLicensing\/HealthcareFacilityLicensing\/LicensedFacilitiesbyType\/", "SOURCEDATE": "2016-10-21T00:00:00.000Z", "VAL_METHOD": "IMAGERY", "VAL_DATE": "2013-10-03T00:00:00.000Z", "WEBSITE": "http:\/\/www.citadel.edu\/root\/infirmary-home", "STATE_ID": "38782754", "ALT_NAME": "MARY BENNETT MURRAY INFIRMARY - THE CITADEL", "ST_FIPS": "45", "OWNER": "GOVERNMENT - STATE", "TTL_STAFF": -999, "BEDS": 38, "TRAUMA": "NOT AVAILABLE", "HELIPAD": "NOT AVAILABLE", "DATECREATE": "2013-03-08T00:00:00.000Z", "Category_1": -9999, "Category_2": 1, "Category_3": 5, "Category_4": 9, "Category_5": 14, "Low_Cat": 2 }, "bbox": [ -79.95967342699998426, 32.79572126700003309, -79.95967342699998426, 32.79572126700003309 ], "geometry": { "type": "Point", "coordinates": [ -79.95967342699998426, 32.79572126700003309 ] } },
{ "type": "Feature", "properties": { "OBJECTID": 6639, "ID": "2134", "NAME": "VIBRA HOSPITAL OF CHARLESTON", "ADDRESS": "1200 HOSPITAL DRIVE", "ADDRESS2": "NOT AVAILABLE", "CITY": "MT PLEASANT", "STATE": "SC", "ZIP": "29401", "ZIP4": "NOT AVAILABLE", "TELEPHONE": "(843) 876-8340", "TYPE": "LONG TERM CARE", "STATUS": "OPEN", "POPULATION": 59, "COUNTY": "CHARLESTON", "COUNTYFIPS": "45019", "COUNTRY": "USA", "LATITUDE": 32.814901626999998, "LONGITUDE": -79.85571638, "NAICS_CODE": "622310", "NAICS_DESC": "EXTENDED CARE HOSPITALS (EXCEPT MENTAL, SUBSTANCE ABUSE)", "SOURCE": "http:\/\/www.scdhec.gov\/Health\/FHPF\/HealthFacilityRegulationsLicensing\/HealthcareFacilityLicensing\/LicensedFacilitiesbyType\/", "SOURCEDATE": "2016-10-21T00:00:00.000Z", "VAL_METHOD": "IMAGERY WITH OTHER", "VAL_DATE": "2014-02-10T00:00:00.000Z", "WEBSITE": "http:\/\/www.vhcharleston.com\/", "STATE_ID": "38781076", "ALT_NAME": "KINDRED HOSPITAL CHARLESTON", "ST_FIPS": "45", "OWNER": "PROPRIETARY", "TTL_STAFF": -999, "BEDS": 59, "TRAUMA": "NOT AVAILABLE", "HELIPAD": "NOT AVAILABLE", "DATECREATE": "2013-03-08T00:00:00.000Z", "Category_1": -9999, "Category_2": 4, "Category_3": 9, "Category_4": 12, "Category_5": 16, "Low_Cat": 2 }, "bbox": [ -79.85571637999998984, 32.81490162700004021, -79.85571637999998984, 32.81490162700004021 ], "geometry": { "type": "Point", "coordinates": [ -79.85571637999998984, 32.81490162700004021 ] } },
{ "type": "Feature", "properties": { "OBJECTID": 6642, "ID": "2137", "NAME": "RALPH H JOHNSON VETERANS AFFAIRS MEDICAL CENTER", "ADDRESS": "109 BEE ST", "ADDRESS2": "NOT AVAILABLE", "CITY": "CHARLESTON", "STATE": "SC", "ZIP": "29401", "ZIP4": "NOT AVAILABLE", "TELEPHONE": "(843) 577-5011", "TYPE": "MILITARY", "STATUS": "OPEN", "POPULATION": 98, "COUNTY": "CHARLESTON", "COUNTYFIPS": "45019", "COUNTRY": "USA", "LATITUDE": 32.784174004999997, "LONGITUDE": -79.954005593999995, "NAICS_CODE": "622110", "NAICS_DESC": "GENERAL MEDICAL AND SURGICAL HOSPITALS", "SOURCE": "http:\/\/www.scdhec.gov\/Health\/FHPF\/HealthFacilityRegulationsLicensing\/HealthcareFacilityLicensing\/LicensedFacilitiesbyType\/", "SOURCEDATE": "2012-07-03T00:00:00.000Z", "VAL_METHOD": "IMAGERY WITH OTHER", "VAL_DATE": "2013-10-03T00:00:00.000Z", "WEBSITE": "http:\/\/www.charleston.va.gov\/", "STATE_ID": "NOT AVAILABLE", "ALT_NAME": "NOT AVAILABLE", "ST_FIPS": "45", "OWNER": "GOVERNMENT - FEDERAL", "TTL_STAFF": -999, "BEDS": 98, "TRAUMA": "NOT AVAILABLE", "HELIPAD": "NOT AVAILABLE", "DATECREATE": "2013-03-08T00:00:00.000Z", "Category_1": 1, "Category_2": 5, "Category_3": 10, "Category_4": 13, "Category_5": 18, "Low_Cat": 1 }, "bbox": [ -79.95400559399996609, 32.78417400500005385, -79.95400559399996609, 32.78417400500005385 ], "geometry": { "type": "Point", "coordinates": [ -79.95400559399996609, 32.78417400500005385 ] } },
{ "type": "Feature", "properties": { "OBJECTID": 4527, "ID": "526", "NAME": "AVENTURA HOSPITAL AND MEDICAL CENTER", "ADDRESS": "20900 BISCAYNE BLVD", "ADDRESS2": "NOT AVAILABLE", "CITY": "AVENTURA", "STATE": "FL", "ZIP": "33180", "ZIP4": "NOT AVAILABLE", "TELEPHONE": "(305) 682-7000", "TYPE": "GENERAL ACUTE CARE", "STATUS": "OPEN", "POPULATION": 359, "COUNTY": "MIAMI-DADE", "COUNTYFIPS": "12086", "COUNTRY": "USA", "LATITUDE": 25.970203182, "LONGITUDE": -80.145396222000002, "NAICS_CODE": "622110", "NAICS_DESC": "GENERAL MEDICAL AND SURGICAL HOSPITALS", "SOURCE": "http:\/\/www.floridahealthfinder.gov\/facilitylocator\/facilitysearch.aspx", "SOURCEDATE": "2016-04-05T00:00:00.000Z", "VAL_METHOD": "IMAGERY", "VAL_DATE": "2013-11-07T00:00:00.000Z", "WEBSITE": "http:\/\/www.aventurahospital.com", "STATE_ID": "9935", "ALT_NAME": "NOT AVAILABLE", "ST_FIPS": "12", "OWNER": "PROPRIETARY", "TTL_STAFF": -999, "BEDS": 359, "TRAUMA": "LEVEL II", "HELIPAD": "NOT AVAILABLE", "DATECREATE": "2012-11-16T00:00:00.000Z", "Category_1": -9999, "Category_2": -9999, "Category_3": -9999, "Category_4": 1, "Category_5": 2, "Low_Cat": 4 }, "bbox": [ -80.14539622199998803, 25.97020318200003075, -80.14539622199998803, 25.97020318200003075 ], "geometry": { "type": "Point", "coordinates": [ -80.14539622199998803, 25.97020318200003075 ] } },
{ "type": "Feature", "properties": { "OBJECTID": 4536, "ID": "535", "NAME": "JACKSON NORTH MEDICAL CENTER", "ADDRESS": "160 NW 170TH ST", "ADDRESS2": "NOT AVAILABLE", "CITY": "NORTH MIAMI BEACH", "STATE": "FL", "ZIP": "33169", "ZIP4": "NOT AVAILABLE", "TELEPHONE": "(305) 651-1100", "TYPE": "GENERAL ACUTE CARE", "STATUS": "OPEN", "POPULATION": 382, "COUNTY": "MIAMI-DADE", "COUNTYFIPS": "12086", "COUNTRY": "USA", "LATITUDE": 25.930410789, "LONGITUDE": -80.203685636000003, "NAICS_CODE": "622110", "NAICS_DESC": "GENERAL MEDICAL AND SURGICAL HOSPITALS", "SOURCE": "http:\/\/www.floridahealthfinder.gov\/facilitylocator\/facilitysearch.aspx", "SOURCEDATE": "2016-04-05T00:00:00.000Z", "VAL_METHOD": "IMAGERY", "VAL_DATE": "2014-02-10T00:00:00.000Z", "WEBSITE": "http:\/\/www.jacksonhealth.org\/jackson-north.asp", "STATE_ID": "9921", "ALT_NAME": "NOT AVAILABLE", "ST_FIPS": "12", "OWNER": "NON-PROFIT", "TTL_STAFF": -999, "BEDS": 382, "TRAUMA": "NOT AVAILABLE", "HELIPAD": "Y", "DATECREATE": "2012-11-16T00:00:00.000Z", "Category_1": -9999, "Category_2": -9999, "Category_3": -9999, "Category_4": -9999, "Category_5": -9999, "Low_Cat": null }, "bbox": [ -80.20368563599997458, 25.93041078900006724, -80.20368563599997458, 25.93041078900006724 ], "geometry": { "type": "Point", "coordinates": [ -80.20368563599997458, 25.93041078900006724 ] } },
{ "type": "Feature", "properties": { "OBJECTID": 4546, "ID": "545", "NAME": "PALMETTO GENERAL HOSPITAL", "ADDRESS": "2001 W 68TH ST", "ADDRESS2": "NOT AVAILABLE", "CITY": "HIALEAH", "STATE": "FL", "ZIP": "33016", "ZIP4": "NOT AVAILABLE", "TELEPHONE": "(305) 823-5000", "TYPE": "GENERAL ACUTE CARE", "STATUS": "OPEN", "POPULATION": 360, "COUNTY": "MIAMI-DADE", "COUNTYFIPS": "12086", "COUNTRY": "USA", "LATITUDE": 25.885766892, "LONGITUDE": -80.326360975, "NAICS_CODE": "622110", "NAICS_DESC": "GENERAL MEDICAL AND SURGICAL HOSPITALS", "SOURCE": "http:\/\/www.floridahealthfinder.gov\/facilitylocator\/facilitysearch.aspx", "SOURCEDATE": "2016-04-05T00:00:00.000Z", "VAL_METHOD": "IMAGERY", "VAL_DATE": "2014-03-12T00:00:00.000Z", "WEBSITE": "http:\/\/www.palmettogeneral.com", "STATE_ID": "9980", "ALT_NAME": "NOT AVAILABLE", "ST_FIPS": "12", "OWNER": "PROPRIETARY", "TTL_STAFF": -999, "BEDS": 360, "TRAUMA": "NOT AVAILABLE", "HELIPAD": "Y", "DATECREATE": "2012-11-16T00:00:00.000Z", "Category_1": -9999, "Category_2": -9999, "Category_3": -9999, "Category_4": -9999, "Category_5": -9999, "Low_Cat": null }, "bbox": [ -80.32636097499994321, 25.88576689200003855, -80.32636097499994321, 25.88576689200003855 ], "geometry": { "type": "Point", "coordinates": [ -80.32636097499994321, 25.88576689200003855 ] } },
{ "type": "Feature", "properties": { "OBJECTID": 4552, "ID": "551", "NAME": "ST CATHERINE'S REHABILITATION HOSPITAL", "ADDRESS": "1050 NE 125TH ST", "ADDRESS2": "NOT AVAILABLE", "CITY": "NORTH MIAMI", "STATE": "FL", "ZIP": "33161", "ZIP4": "NOT AVAILABLE", "TELEPHONE": "(305) 891-8850", "TYPE": "REHABILITATION", "STATUS": "OPEN", "POPULATION": 20, "COUNTY": "MIAMI-DADE", "COUNTYFIPS": "12086", "COUNTRY": "USA", "LATITUDE": 25.889872314000002, "LONGITUDE": -80.177659569, "NAICS_CODE": "622110", "NAICS_DESC": "GENERAL MEDICAL AND SURGICAL HOSPITALS", "SOURCE": "http:\/\/www.floridahealthfinder.gov\/facilitylocator\/facilitysearch.aspx", "SOURCEDATE": "2016-04-05T00:00:00.000Z", "VAL_METHOD": "IMAGERY", "VAL_DATE": "2014-02-10T00:00:00.000Z", "WEBSITE": "http:\/\/www.catholichealthservices.org\/rehabilitation-hospitals\/catholic-health-services.aspx?nd=80", "STATE_ID": "10040", "ALT_NAME": "NOT AVAILABLE", "ST_FIPS": "12", "OWNER": "NON-PROFIT", "TTL_STAFF": -999, "BEDS": 20, "TRAUMA": "NOT AVAILABLE", "HELIPAD": "NOT AVAILABLE", "DATECREATE": "2012-11-16T00:00:00.000Z", "Category_1": -9999, "Category_2": -9999, "Category_3": -9999, "Category_4": -9999, "Category_5": 2, "Low_Cat": 5 }, "bbox": [ -80.17765956899994251, 25.88987231400005129, -80.17765956899994251, 25.88987231400005129 ], "geometry": { "type": "Point", "coordinates": [ -80.17765956899994251, 25.88987231400005129 ] } },
{ "type": "Feature", "properties": { "OBJECTID": 4553, "ID": "552", "NAME": "ST CATHERINE'S WEST REHABILITATION HOSPITAL", "ADDRESS": "8850 NW 122ND ST", "ADDRESS2": "NOT AVAILABLE", "CITY": "HIALEAH GARDENS", "STATE": "FL", "ZIP": "33018", "ZIP4": "NOT AVAILABLE", "TELEPHONE": "(305) 351-7181", "TYPE": "REHABILITATION", "STATUS": "OPEN", "POPULATION": 40, "COUNTY": "MIAMI-DADE", "COUNTYFIPS": "12086", "COUNTRY": "USA", "LATITUDE": 25.883755517000001, "LONGITUDE": -80.342973228000005, "NAICS_CODE": "622110", "NAICS_DESC": "GENERAL MEDICAL AND SURGICAL HOSPITALS", "SOURCE": "http:\/\/www.floridahealthfinder.gov\/facilitylocator\/facilitysearch.aspx", "SOURCEDATE": "2016-04-05T00:00:00.000Z", "VAL_METHOD": "IMAGERY", "VAL_DATE": "2014-02-10T00:00:00.000Z", "WEBSITE": "http:\/\/www.catholichealthservices.org\/rehabilitation-hospitals\/catholic-health-services.aspx?nd=174", "STATE_ID": "269900", "ALT_NAME": "NOT AVAILABLE", "ST_FIPS": "12", "OWNER": "NON-PROFIT", "TTL_STAFF": -999, "BEDS": 40, "TRAUMA": "NOT AVAILABLE", "HELIPAD": "NOT AVAILABLE", "DATECREATE": "2012-11-16T00:00:00.000Z", "Category_1": -9999, "Category_2": -9999, "Category_3": -9999, "Category_4": 1, "Category_5": -9999, "Low_Cat": 4 }, "bbox": [ -80.34297322799994845, 25.88375551700004706, -80.34297322799994845, 25.88375551700004706 ], "geometry": { "type": "Point", "coordinates": [ -80.34297322799994845, 25.88375551700004706 ] } },
{ "type": "Feature", "properties": { "OBJECTID": 3087, "ID": "1582", "NAME": "PROMISE HOSPITAL OF MIAMI", "ADDRESS": "14001 NW 8ND AVE", "ADDRESS2": "NOT AVAILABLE", "CITY": "MIAMI LAKES", "STATE": "FL", "ZIP": "33016", "ZIP4": "NOT AVAILABLE", "TELEPHONE": "(954) 594-5525", "TYPE": "LONG TERM CARE", "STATUS": "OPEN", "POPULATION": 60, "COUNTY": "MIAMI-DADE", "COUNTYFIPS": "12086", "COUNTRY": "USA", "LATITUDE": 25.900336921000001, "LONGITUDE": -80.331523366, "NAICS_CODE": "622310", "NAICS_DESC": "EXTENDED CARE HOSPITALS (EXCEPT MENTAL, SUBSTANCE ABUSE)", "SOURCE": "http:\/\/www.floridahealthfinder.gov\/facilitylocator\/facilitysearch.aspx", "SOURCEDATE": "2016-04-05T00:00:00.000Z", "VAL_METHOD": "IMAGERY", "VAL_DATE": "2016-04-12T00:00:00.000Z", "WEBSITE": "http:\/\/www.promise-miami.com\/", "STATE_ID": "NOT AVAILABLE", "ALT_NAME": "NOT AVAILABLE", "ST_FIPS": "12", "OWNER": "PROPRIETARY", "TTL_STAFF": -999, "BEDS": 60, "TRAUMA": "NOT AVAILABLE", "HELIPAD": "NOT AVAILABLE", "DATECREATE": "2016-04-12T00:00:00.000Z", "Category_1": -9999, "Category_2": -9999, "Category_3": -9999, "Category_4": -9999, "Category_5": -9999, "Low_Cat": null }, "bbox": [ -80.33152336599994214, 25.90033692100007201, -80.33152336599994214, 25.90033692100007201 ], "geometry": { "type": "Point", "coordinates": [ -80.33152336599994214, 25.90033692100007201 ] } },
{ "type": "Feature", "properties": { "OBJECTID": 4545, "ID": "544", "NAME": "NORTH SHORE MEDICAL CENTER", "ADDRESS": "1100 NW 95TH ST", "ADDRESS2": "NOT AVAILABLE", "CITY": "MIAMI", "STATE": "FL", "ZIP": "33150", "ZIP4": "NOT AVAILABLE", "TELEPHONE": "(305) 835-6000", "TYPE": "GENERAL ACUTE CARE", "STATUS": "OPEN", "POPULATION": 357, "COUNTY": "MIAMI-DADE", "COUNTYFIPS": "12086", "COUNTRY": "USA", "LATITUDE": 25.859785949, "LONGITUDE": -80.214704104999996, "NAICS_CODE": "622110", "NAICS_DESC": "GENERAL MEDICAL AND SURGICAL HOSPITALS", "SOURCE": "http:\/\/www.floridahealthfinder.gov\/facilitylocator\/facilitysearch.aspx", "SOURCEDATE": "2016-04-05T00:00:00.000Z", "VAL_METHOD": "IMAGERY", "VAL_DATE": "2013-11-08T00:00:00.000Z", "WEBSITE": "http:\/\/www.northshoremedical.com", "STATE_ID": "9852", "ALT_NAME": "NOT AVAILABLE", "ST_FIPS": "12", "OWNER": "PROPRIETARY", "TTL_STAFF": -999, "BEDS": 357, "TRAUMA": "NOT AVAILABLE", "HELIPAD": "NOT AVAILABLE", "DATECREATE": "2012-11-16T00:00:00.000Z", "Category_1": -9999, "Category_2": -9999, "Category_3": -9999, "Category_4": -9999, "Category_5": 1, "Low_Cat": 5 }, "bbox": [ -80.21470410499995296, 25.85978594900007366, -80.21470410499995296, 25.85978594900007366 ], "geometry": { "type": "Point", "coordinates": [ -80.21470410499995296, 25.85978594900007366 ] } },
{ "type": "Feature", "properties": { "OBJECTID": 4551, "ID": "550", "NAME": "SOUTHERN WINDS HOSPITAL", "ADDRESS": "4225 W 20TH AVE", "ADDRESS2": "NOT AVAILABLE", "CITY": "HIALEAH", "STATE": "FL", "ZIP": "33012", "ZIP4": "NOT AVAILABLE", "TELEPHONE": "(305) 558-9700", "TYPE": "PSYCHIATRIC", "STATUS": "OPEN", "POPULATION": 72, "COUNTY": "MIAMI-DADE", "COUNTYFIPS": "12086", "COUNTRY": "USA", "LATITUDE": 25.860337006000002, "LONGITUDE": -80.321534053999997, "NAICS_CODE": "622110", "NAICS_DESC": "GENERAL MEDICAL AND SURGICAL HOSPITALS", "SOURCE": "http:\/\/www.floridahealthfinder.gov\/facilitylocator\/facilitysearch.aspx", "SOURCEDATE": "2016-04-05T00:00:00.000Z", "VAL_METHOD": "IMAGERY", "VAL_DATE": "2014-02-10T00:00:00.000Z", "WEBSITE": "http:\/\/westchestergeneralhospital.com\/southern-winds-hospital\/", "STATE_ID": "10100", "ALT_NAME": "NOT AVAILABLE", "ST_FIPS": "12", "OWNER": "PROPRIETARY", "TTL_STAFF": -999, "BEDS": 72, "TRAUMA": "NOT AVAILABLE", "HELIPAD": "NOT AVAILABLE", "DATECREATE": "2012-11-16T00:00:00.000Z", "Category_1": -9999, "Category_2": -9999, "Category_3": -9999, "Category_4": -9999, "Category_5": -9999, "Low_Cat": null }, "bbox": [ -80.32153405399998292, 25.86033700600005503, -80.32153405399998292, 25.86033700600005503 ], "geometry": { "type": "Point", "coordinates": [ -80.32153405399998292, 25.86033700600005503 ] } },
{ "type": "Feature", "properties": { "OBJECTID": 3069, "ID": "1564", "NAME": "LARKIN COMMUNITY HOSPITAL PALM SPRINGS CAMPUS", "ADDRESS": "1475 W 49TH ST", "ADDRESS2": "NOT AVAILABLE", "CITY": "HIALEAH", "STATE": "FL", "ZIP": "33012", "ZIP4": "NOT AVAILABLE", "TELEPHONE": "(305) 558-2500", "TYPE": "GENERAL ACUTE CARE", "STATUS": "OPEN", "POPULATION": 247, "COUNTY": "MIAMI-DADE", "COUNTYFIPS": "12086", "COUNTRY": "USA", "LATITUDE": 25.868542426000001, "LONGITUDE": -80.312269678000007, "NAICS_CODE": "622110", "NAICS_DESC": "GENERAL MEDICAL AND SURGICAL HOSPITALS", "SOURCE": "http:\/\/www.floridahealthfinder.gov\/facilitylocator\/facilitysearch.aspx", "SOURCEDATE": "2016-04-05T00:00:00.000Z", "VAL_METHOD": "IMAGERY", "VAL_DATE": "2013-11-08T00:00:00.000Z", "WEBSITE": "http:\/\/www.psghosp.com", "STATE_ID": "9868", "ALT_NAME": "NOT AVAILABLE", "ST_FIPS": "12", "OWNER": "PROPRIETARY", "TTL_STAFF": -999, "BEDS": 247, "TRAUMA": "NOT AVAILABLE", "HELIPAD": "NOT AVAILABLE", "DATECREATE": "2012-11-16T00:00:00.000Z", "Category_1": -9999, "Category_2": -9999, "Category_3": -9999, "Category_4": -9999, "Category_5": -9999, "Low_Cat": null }, "bbox": [ -80.31226967799995009, 25.86854242600002607, -80.31226967799995009, 25.86854242600002607 ], "geometry": { "type": "Point", "coordinates": [ -80.31226967799995009, 25.86854242600002607 ] } },
{ "type": "Feature", "properties": { "OBJECTID": 4531, "ID": "530", "NAME": "DOUGLAS GARDENS HOSPITAL", "ADDRESS": "5200 NE 2ND AVE", "ADDRESS2": "NOT AVAILABLE", "CITY": "MIAMI", "STATE": "FL", "ZIP": "33137", "ZIP4": "NOT AVAILABLE", "TELEPHONE": "(305) 514-8505", "TYPE": "GENERAL ACUTE CARE", "STATUS": "OPEN", "POPULATION": 32, "COUNTY": "MIAMI-DADE", "COUNTYFIPS": "12086", "COUNTRY": "USA", "LATITUDE": 25.822828162, "LONGITUDE": -80.192446520999994, "NAICS_CODE": "622110", "NAICS_DESC": "GENERAL MEDICAL AND SURGICAL HOSPITALS", "SOURCE": "http:\/\/www.floridahealthfinder.gov\/facilitylocator\/facilitysearch.aspx", "SOURCEDATE": "2016-04-05T00:00:00.000Z", "VAL_METHOD": "IMAGERY", "VAL_DATE": "2014-02-10T00:00:00.000Z", "WEBSITE": "http:\/\/www.mjhha.org", "STATE_ID": "9985", "ALT_NAME": "NOT AVAILABLE", "ST_FIPS": "12", "OWNER": "NON-PROFIT", "TTL_STAFF": -999, "BEDS": 32, "TRAUMA": "NOT AVAILABLE", "HELIPAD": "NOT AVAILABLE", "DATECREATE": "2012-11-16T00:00:00.000Z", "Category_1": -9999, "Category_2": -9999, "Category_3": -9999, "Category_4": -9999, "Category_5": -9999, "Low_Cat": null }, "bbox": [ -80.19244652099995108, 25.8228281620000466, -80.19244652099995108, 25.8228281620000466 ], "geometry": { "type": "Point", "coordinates": [ -80.19244652099995108, 25.8228281620000466 ] } },
{ "type": "Feature", "properties": { "OBJECTID": 4533, "ID": "532", "NAME": "HIALEAH HOSPITAL", "ADDRESS": "651 E 25TH ST", "ADDRESS2": "NOT AVAILABLE", "CITY": "HIALEAH", "STATE": "FL", "ZIP": "33013", "ZIP4": "NOT AVAILABLE", "TELEPHONE": "(305) 693-6100", "TYPE": "GENERAL ACUTE CARE", "STATUS": "OPEN", "POPULATION": 378, "COUNTY": "MIAMI-DADE", "COUNTYFIPS": "12086", "COUNTRY": "USA", "LATITUDE": 25.845561822000001, "LONGITUDE": -80.268961621000003, "NAICS_CODE": "622110", "NAICS_DESC": "GENERAL MEDICAL AND SURGICAL HOSPITALS", "SOURCE": "http:\/\/www.floridahealthfinder.gov\/facilitylocator\/facilitysearch.aspx", "SOURCEDATE": "2016-04-05T00:00:00.000Z", "VAL_METHOD": "IMAGERY", "VAL_DATE": "2013-11-07T00:00:00.000Z", "WEBSITE": "http:\/\/www.hialeahhosp.com", "STATE_ID": "9871", "ALT_NAME": "NOT AVAILABLE", "ST_FIPS": "12", "OWNER": "PROPRIETARY", "TTL_STAFF": -999, "BEDS": 378, "TRAUMA": "NOT AVAILABLE", "HELIPAD": "NOT AVAILABLE", "DATECREATE": "2012-11-16T00:00:00.000Z", "Category_1": -9999, "Category_2": -9999, "Category_3": -9999, "Category_4": -9999, "Category_5": -9999, "Low_Cat": null }, "bbox": [ -80.26896162099995991, 25.84556182200003249, -80.26896162099995991, 25.84556182200003249 ], "geometry": { "type": "Point", "coordinates": [ -80.26896162099995991, 25.84556182200003249 ] } },
{ "type": "Feature", "properties": { "OBJECTID": 660, "ID": "155", "NAME": "MIAMI HEART INSTITUTE & MEDICAL CENTER", "ADDRESS": "4701 N MERIDIAN AVE", "ADDRESS2": "NOT AVAILABLE", "CITY": "MIAMI", "STATE": "FL", "ZIP": "33140", "ZIP4": "NOT AVAILABLE", "TELEPHONE": "(305) 674-3114", "TYPE": "SPECIAL", "STATUS": "CLOSED", "POPULATION": -999, "COUNTY": "MIAMI-DADE", "COUNTYFIPS": "12086", "COUNTRY": "USA", "LATITUDE": 25.823087028, "LONGITUDE": -80.13109837, "NAICS_CODE": "622110", "NAICS_DESC": "GENERAL MEDICAL AND SURGICAL HOSPITALS", "SOURCE": "http:\/\/www.fgdl.org\/metadataexplorer\/explorer.jsp", "SOURCEDATE": "2012-06-14T00:00:00.000Z", "VAL_METHOD": "IMAGERY WITH OTHER", "VAL_DATE": "2014-04-15T00:00:00.000Z", "WEBSITE": "HTTP:\/\/WWW.MSMC.COM", "STATE_ID": "FL000135", "ALT_NAME": "NOT AVAILABLE", "ST_FIPS": "12", "OWNER": "NOT AVAILABLE", "TTL_STAFF": -999, "BEDS": 278, "TRAUMA": "NOT AVAILABLE", "HELIPAD": "NOT AVAILABLE", "DATECREATE": "2012-06-14T00:00:00.000Z", "Category_1": -9999, "Category_2": 2, "Category_3": 3, "Category_4": 5, "Category_5": 6, "Low_Cat": 2 }, "bbox": [ -80.13109836999996105, 25.8230870280000282, -80.13109836999996105, 25.8230870280000282 ], "geometry": { "type": "Point", "coordinates": [ -80.13109836999996105, 25.8230870280000282 ] } },
{ "type": "Feature", "properties": { "OBJECTID": 4535, "ID": "534", "NAME": "JACKSON MEMORIAL HOSPITAL", "ADDRESS": "1611 NW 12TH AVE", "ADDRESS2": "NOT AVAILABLE", "CITY": "MIAMI", "STATE": "FL", "ZIP": "33136", "ZIP4": "NOT AVAILABLE", "TELEPHONE": "(305) 585-1111", "TYPE": "GENERAL ACUTE CARE", "STATUS": "OPEN", "POPULATION": 1550, "COUNTY": "MIAMI-DADE", "COUNTYFIPS": "12086", "COUNTRY": "USA", "LATITUDE": 25.792347385, "LONGITUDE": -80.213487744999995, "NAICS_CODE": "622110", "NAICS_DESC": "GENERAL MEDICAL AND SURGICAL HOSPITALS", "SOURCE": "http:\/\/www.floridahealthfinder.gov\/facilitylocator\/facilitysearch.aspx", "SOURCEDATE": "2016-04-05T00:00:00.000Z", "VAL_METHOD": "IMAGERY", "VAL_DATE": "2014-02-10T00:00:00.000Z", "WEBSITE": "http:\/\/www.jacksonhealth.org\/jackson-memorial.asp", "STATE_ID": "9845", "ALT_NAME": "NOT AVAILABLE", "ST_FIPS": "12", "OWNER": "NON-PROFIT", "TTL_STAFF": -999, "BEDS": 1550, "TRAUMA": "LEVEL I", "HELIPAD": "Y", "DATECREATE": "2012-11-16T00:00:00.000Z", "Category_1": -9999, "Category_2": -9999, "Category_3": -9999, "Category_4": -9999, "Category_5": -9999, "Low_Cat": null }, "bbox": [ -80.21348774499996637, 25.79234738500002777, -80.21348774499996637, 25.79234738500002777 ], "geometry": { "type": "Point", "coordinates": [ -80.21348774499996637, 25.79234738500002777 ] } },
{ "type": "Feature", "properties": { "OBJECTID": 4543, "ID": "542", "NAME": "MIAMI VA HEALTHCARE SYSTEM", "ADDRESS": "1201 NW 16TH STREET", "ADDRESS2": "NOT AVAILABLE", "CITY": "MIAMI", "STATE": "FL", "ZIP": "33125", "ZIP4": "NOT AVAILABLE", "TELEPHONE": "(888) 276-1785", "TYPE": "MILITARY", "STATUS": "OPEN", "POPULATION": 281, "COUNTY": "MIAMI-DADE", "COUNTYFIPS": "12086", "COUNTRY": "USA", "LATITUDE": 25.791222521000002, "LONGITUDE": -80.216724917999997, "NAICS_CODE": "622110", "NAICS_DESC": "GENERAL MEDICAL AND SURGICAL HOSPITALS", "SOURCE": "http:\/\/www.fgdl.org\/metadataexplorer\/explorer.jsp", "SOURCEDATE": "2012-06-14T00:00:00.000Z", "VAL_METHOD": "IMAGERY", "VAL_DATE": "2014-02-10T00:00:00.000Z", "WEBSITE": "http:\/\/www.miami.va.gov\/", "STATE_ID": "235300", "ALT_NAME": "NOT AVAILABLE", "ST_FIPS": "12", "OWNER": "GOVERNMENT - FEDERAL", "TTL_STAFF": -999, "BEDS": 281, "TRAUMA": "NOT AVAILABLE", "HELIPAD": "NOT AVAILABLE", "DATECREATE": "2012-11-16T00:00:00.000Z", "Category_1": -9999, "Category_2": -9999, "Category_3": -9999, "Category_4": 2, "Category_5": 2, "Low_Cat": 4 }, "bbox": [ -80.21672491799996862, 25.79122252100006918, -80.21672491799996862, 25.79122252100006918 ], "geometry": { "type": "Point", "coordinates": [ -80.21672491799996862, 25.79122252100006918 ] } },
{ "type": "Feature", "properties": { "OBJECTID": 4544, "ID": "543", "NAME": "MOUNT SINAI MEDICAL CENTER", "ADDRESS": "4300 ALTON RD", "ADDRESS2": "NOT AVAILABLE", "CITY": "MIAMI BEACH", "STATE": "FL", "ZIP": "33140", "ZIP4": "NOT AVAILABLE", "TELEPHONE": "(305) 674-2121", "TYPE": "GENERAL ACUTE CARE", "STATUS": "OPEN", "POPULATION": 666, "COUNTY": "MIAMI-DADE", "COUNTYFIPS": "12086", "COUNTRY": "USA", "LATITUDE": 25.813219094000001, "LONGITUDE": -80.139681562000007, "NAICS_CODE": "622110", "NAICS_DESC": "GENERAL MEDICAL AND SURGICAL HOSPITALS", "SOURCE": "http:\/\/www.floridahealthfinder.gov\/facilitylocator\/facilitysearch.aspx", "SOURCEDATE": "2016-04-05T00:00:00.000Z", "VAL_METHOD": "IMAGERY", "VAL_DATE": "2014-02-10T00:00:00.000Z", "WEBSITE": "http:\/\/www.msmc.com", "STATE_ID": "9855", "ALT_NAME": "NOT AVAILABLE", "ST_FIPS": "12", "OWNER": "NON-PROFIT", "TTL_STAFF": -999, "BEDS": 666, "TRAUMA": "NOT AVAILABLE", "HELIPAD": "Y", "DATECREATE": "2012-11-16T00:00:00.000Z", "Category_1": -9999, "Category_2": -9999, "Category_3": 1, "Category_4": 3, "Category_5": 4, "Low_Cat": 3 }, "bbox": [ -80.13968156199996429, 25.81321909400002568, -80.13968156199996429, 25.81321909400002568 ], "geometry": { "type": "Point", "coordinates": [ -80.13968156199996429, 25.81321909400002568 ] } },
{ "type": "Feature", "properties": { "OBJECTID": 3081, "ID": "1576", "NAME": "ANNE BATES LEACH EYE HOSPITAL", "ADDRESS": "900 NW 17TH ST", "ADDRESS2": "NOT AVAILABLE", "CITY": "MIAMI", "STATE": "FL", "ZIP": "33136", "ZIP4": "NOT AVAILABLE", "TELEPHONE": "(305) 326-6000", "TYPE": "GENERAL ACUTE CARE", "STATUS": "OPEN", "POPULATION": 100, "COUNTY": "MIAMI-DADE", "COUNTYFIPS": "12086", "COUNTRY": "USA", "LATITUDE": 25.791140791, "LONGITUDE": -80.210800363000004, "NAICS_CODE": "622110", "NAICS_DESC": "GENERAL MEDICAL AND SURGICAL HOSPITALS", "SOURCE": "http:\/\/www.floridahealthfinder.gov\/facilitylocator\/facilitysearch.aspx", "SOURCEDATE": "2016-04-05T00:00:00.000Z", "VAL_METHOD": "IMAGERY", "VAL_DATE": "2014-02-10T00:00:00.000Z", "WEBSITE": "http:\/\/www.bascompalmer.org", "STATE_ID": "10020", "ALT_NAME": "NOT AVAILABLE", "ST_FIPS": "12", "OWNER": "NON-PROFIT", "TTL_STAFF": -999, "BEDS": 100, "TRAUMA": "NOT AVAILABLE", "HELIPAD": "Y", "DATECREATE": "2012-11-16T00:00:00.000Z", "Category_1": -9999, "Category_2": -9999, "Category_3": -9999, "Category_4": -9999, "Category_5": -9999, "Low_Cat": null }, "bbox": [ -80.21080036299997573, 25.7911407910000321, -80.21080036299997573, 25.7911407910000321 ], "geometry": { "type": "Point", "coordinates": [ -80.21080036299997573, 25.7911407910000321 ] } },
{ "type": "Feature", "properties": { "OBJECTID": 3082, "ID": "1577", "NAME": "UNIVERSITY OF MIAMI HOSPITAL AND CLINICS", "ADDRESS": "1475 NW 12TH AVE", "ADDRESS2": "NOT AVAILABLE", "CITY": "MIAMI", "STATE": "FL", "ZIP": "33136", "ZIP4": "NOT AVAILABLE", "TELEPHONE": "(305) 243-1000", "TYPE": "SPECIAL", "STATUS": "OPEN", "POPULATION": 40, "COUNTY": "MIAMI-DADE", "COUNTYFIPS": "12086", "COUNTRY": "USA", "LATITUDE": 25.788797056, "LONGITUDE": -80.214560031999994, "NAICS_CODE": "622110", "NAICS_DESC": "GENERAL MEDICAL AND SURGICAL HOSPITALS", "SOURCE": "http:\/\/www.floridahealthfinder.gov\/facilitylocator\/facilitysearch.aspx", "SOURCEDATE": "2016-04-05T00:00:00.000Z", "VAL_METHOD": "IMAGERY", "VAL_DATE": "2014-02-10T00:00:00.000Z", "WEBSITE": "http:\/\/www.uhealthsystem.com", "STATE_ID": "9894", "ALT_NAME": "NOT AVAILABLE", "ST_FIPS": "12", "OWNER": "NON-PROFIT", "TTL_STAFF": -999, "BEDS": 40, "TRAUMA": "NOT AVAILABLE", "HELIPAD": "NOT AVAILABLE", "DATECREATE": "2012-11-16T00:00:00.000Z", "Category_1": -9999, "Category_2": -9999, "Category_3": -9999, "Category_4": 3, "Category_5": 4, "Low_Cat": 4 }, "bbox": [ -80.21456003199995166, 25.7887970560000781, -80.21456003199995166, 25.7887970560000781 ], "geometry": { "type": "Point", "coordinates": [ -80.21456003199995166, 25.7887970560000781 ] } },
{ "type": "Feature", "properties": { "OBJECTID": 3083, "ID": "1578", "NAME": "UNIVERSITY OF MIAMI HOSPITAL", "ADDRESS": "1400 NW 12TH AVE", "ADDRESS2": "NOT AVAILABLE", "CITY": "MIAMI", "STATE": "FL", "ZIP": "33136", "ZIP4": "NOT AVAILABLE", "TELEPHONE": "(305) 689-5511", "TYPE": "GENERAL ACUTE CARE", "STATUS": "OPEN", "POPULATION": 525, "COUNTY": "MIAMI-DADE", "COUNTYFIPS": "12086", "COUNTRY": "USA", "LATITUDE": 25.788672011, "LONGITUDE": -80.215915662, "NAICS_CODE": "622110", "NAICS_DESC": "GENERAL MEDICAL AND SURGICAL HOSPITALS", "SOURCE": "http:\/\/www.floridahealthfinder.gov\/facilitylocator\/facilitysearch.aspx", "SOURCEDATE": "2016-04-05T00:00:00.000Z", "VAL_METHOD": "IMAGERY", "VAL_DATE": "2014-02-10T00:00:00.000Z", "WEBSITE": "http:\/\/www.umiamihospital.com", "STATE_ID": "9834", "ALT_NAME": "NOT AVAILABLE", "ST_FIPS": "12", "OWNER": "NON-PROFIT", "TTL_STAFF": -999, "BEDS": 525, "TRAUMA": "NOT AVAILABLE", "HELIPAD": "NOT AVAILABLE", "DATECREATE": "2012-11-16T00:00:00.000Z", "Category_1": -9999, "Category_2": -9999, "Category_3": 2, "Category_4": 5, "Category_5": 6, "Low_Cat": 3 }, "bbox": [ -80.21591566199998624, 25.78867201100007733, -80.21591566199998624, 25.78867201100007733 ], "geometry": { "type": "Point", "coordinates": [ -80.21591566199998624, 25.78867201100007733 ] } },
{ "type": "Feature", "properties": { "OBJECTID": 645, "ID": "140", "NAME": "JACKSON MEMORIAL MENTAL HEALTH CENTER - INPATIENT", "ADDRESS": "1695 NW 9TH AVE", "ADDRESS2": "NOT AVAILABLE", "CITY": "MIAMI", "STATE": "FL", "ZIP": "33136", "ZIP4": "NOT AVAILABLE", "TELEPHONE": "(305) 355-8234", "TYPE": "PSYCHIATRIC", "STATUS": "OPEN", "POPULATION": -999, "COUNTY": "MIAMI-DADE", "COUNTYFIPS": "12086", "COUNTRY": "USA", "LATITUDE": 25.791161646, "LONGITUDE": -80.209535067999994, "NAICS_CODE": "622110", "NAICS_DESC": "GENERAL MEDICAL AND SURGICAL HOSPITALS", "SOURCE": "http:\/\/www.floridahealthfinder.gov\/facilitylocator\/facilitysearch.aspx", "SOURCEDATE": "2016-04-05T00:00:00.000Z", "VAL_METHOD": "IMAGERY WITH OTHER", "VAL_DATE": "2015-02-16T00:00:00.000Z", "WEBSITE": "HTTP:\/\/WWW.JHSMIAMI.ORG\/BODY.CFM?ID=53", "STATE_ID": "NOT AVAILABLE", "ALT_NAME": "NOT AVAILABLE", "ST_FIPS": "12", "OWNER": "NOT AVAILABLE", "TTL_STAFF": -999, "BEDS": 239, "TRAUMA": "NOT AVAILABLE", "HELIPAD": "NOT AVAILABLE", "DATECREATE": "2014-02-16T00:00:00.000Z", "Category_1": -9999, "Category_2": -9999, "Category_3": -9999, "Category_4": -9999, "Category_5": -9999, "Low_Cat": null }, "bbox": [ -80.20953506799997967, 25.79116164600002747, -80.20953506799997967, 25.79116164600002747 ], "geometry": { "type": "Point", "coordinates": [ -80.20953506799997967, 25.79116164600002747 ] } },
{ "type": "Feature", "properties": { "OBJECTID": 4539, "ID": "538", "NAME": "KINDRED HOSPITAL-SOUTH FLORIDA-CORAL GABLES", "ADDRESS": "5190 SW 8TH ST", "ADDRESS2": "NOT AVAILABLE", "CITY": "CORAL GABLES", "STATE": "FL", "ZIP": "33134", "ZIP4": "NOT AVAILABLE", "TELEPHONE": "(305) 448-1585", "TYPE": "LONG TERM CARE", "STATUS": "OPEN", "POPULATION": 53, "COUNTY": "MIAMI-DADE", "COUNTYFIPS": "12086", "COUNTRY": "USA", "LATITUDE": 25.763716786, "LONGITUDE": -80.27894771, "NAICS_CODE": "622110", "NAICS_DESC": "GENERAL MEDICAL AND SURGICAL HOSPITALS", "SOURCE": "http:\/\/www.floridahealthfinder.gov\/facilitylocator\/facilitysearch.aspx", "SOURCEDATE": "2016-04-05T00:00:00.000Z", "VAL_METHOD": "IMAGERY", "VAL_DATE": "2014-02-10T00:00:00.000Z", "WEBSITE": "http:\/\/www.khcoralgables.com\/", "STATE_ID": "9952", "ALT_NAME": "NOT AVAILABLE", "ST_FIPS": "12", "OWNER": "PROPRIETARY", "TTL_STAFF": -999, "BEDS": 53, "TRAUMA": "NOT AVAILABLE", "HELIPAD": "NOT AVAILABLE", "DATECREATE": "2012-11-16T00:00:00.000Z", "Category_1": -9999, "Category_2": -9999, "Category_3": -9999, "Category_4": -9999, "Category_5": -9999, "Low_Cat": null }, "bbox": [ -80.27894770999995444, 25.76371678600003179, -80.27894770999995444, 25.76371678600003179 ], "geometry": { "type": "Point", "coordinates": [ -80.27894770999995444, 25.76371678600003179 ] } },
{ "type": "Feature", "properties": { "OBJECTID": 4548, "ID": "547", "NAME": "SELECT SPECIALTY HOSPITAL-MIAMI", "ADDRESS": "955 NW 3RD ST", "ADDRESS2": "8TH FLOOR", "CITY": "MIAMI", "STATE": "FL", "ZIP": "33128", "ZIP4": "NOT AVAILABLE", "TELEPHONE": "(305) 416-5700", "TYPE": "LONG TERM CARE", "STATUS": "OPEN", "POPULATION": 40, "COUNTY": "MIAMI-DADE", "COUNTYFIPS": "12086", "COUNTRY": "USA", "LATITUDE": 25.776845544, "LONGITUDE": -80.210636543000007, "NAICS_CODE": "622110", "NAICS_DESC": "GENERAL MEDICAL AND SURGICAL HOSPITALS", "SOURCE": "http:\/\/www.floridahealthfinder.gov\/facilitylocator\/facilitysearch.aspx", "SOURCEDATE": "2016-04-05T00:00:00.000Z", "VAL_METHOD": "IMAGERY", "VAL_DATE": "2014-02-10T00:00:00.000Z", "WEBSITE": "http:\/\/www.selectspecialtyhospitals.com\/company\/locations\/miami.aspx", "STATE_ID": "10170", "ALT_NAME": "NOT AVAILABLE", "ST_FIPS": "12", "OWNER": "PROPRIETARY", "TTL_STAFF": -999, "BEDS": 40, "TRAUMA": "NOT AVAILABLE", "HELIPAD": "NOT AVAILABLE", "DATECREATE": "2012-11-16T00:00:00.000Z", "Category_1": 2, "Category_2": 2, "Category_3": 3, "Category_4": 7, "Category_5": 9, "Low_Cat": 1 }, "bbox": [ -80.21063654299996415, 25.77684554400002881, -80.21063654299996415, 25.77684554400002881 ], "geometry": { "type": "Point", "coordinates": [ -80.21063654299996415, 25.77684554400002881 ] } },
{ "type": "Feature", "properties": { "OBJECTID": 4555, "ID": "554", "NAME": "WEST GABLES REHABILITATION HOSPITAL", "ADDRESS": "2525 SW 75TH AVE", "ADDRESS2": "NOT AVAILABLE", "CITY": "MIAMI", "STATE": "FL", "ZIP": "33155", "ZIP4": "NOT AVAILABLE", "TELEPHONE": "(305) 262-6800", "TYPE": "REHABILITATION", "STATUS": "OPEN", "POPULATION": 60, "COUNTY": "MIAMI-DADE", "COUNTYFIPS": "12086", "COUNTRY": "USA", "LATITUDE": 25.74698256, "LONGITUDE": -80.316717357000002, "NAICS_CODE": "622110", "NAICS_DESC": "GENERAL MEDICAL AND SURGICAL HOSPITALS", "SOURCE": "http:\/\/www.floridahealthfinder.gov\/facilitylocator\/facilitysearch.aspx", "SOURCEDATE": "2016-04-05T00:00:00.000Z", "VAL_METHOD": "IMAGERY", "VAL_DATE": "2013-11-08T00:00:00.000Z", "WEBSITE": "http:\/\/www.westgablesrehabhospital.com\/", "STATE_ID": "10110", "ALT_NAME": "NOT AVAILABLE", "ST_FIPS": "12", "OWNER": "PROPRIETARY", "TTL_STAFF": -999, "BEDS": 60, "TRAUMA": "NOT AVAILABLE", "HELIPAD": "NOT AVAILABLE", "DATECREATE": "2012-11-16T00:00:00.000Z", "Category_1": -9999, "Category_2": -9999, "Category_3": -9999, "Category_4": 1, "Category_5": 1, "Low_Cat": 4 }, "bbox": [ -80.31671735699995907, 25.74698256000004903, -80.31671735699995907, 25.74698256000004903 ], "geometry": { "type": "Point", "coordinates": [ -80.31671735699995907, 25.74698256000004903 ] } },
{ "type": "Feature", "properties": { "OBJECTID": 4557, "ID": "556", "NAME": "WESTCHESTER GENERAL HOSPITAL", "ADDRESS": "2500 SW 75TH AVE", "ADDRESS2": "NOT AVAILABLE", "CITY": "MIAMI", "STATE": "FL", "ZIP": "33155", "ZIP4": "NOT AVAILABLE", "TELEPHONE": "(305) 264-5252", "TYPE": "GENERAL ACUTE CARE", "STATUS": "OPEN", "POPULATION": 197, "COUNTY": "MIAMI-DADE", "COUNTYFIPS": "12086", "COUNTRY": "USA", "LATITUDE": 25.747509356999998, "LONGITUDE": -80.317455847000005, "NAICS_CODE": "622110", "NAICS_DESC": "GENERAL MEDICAL AND SURGICAL HOSPITALS", "SOURCE": "http:\/\/www.floridahealthfinder.gov\/facilitylocator\/facilitysearch.aspx", "SOURCEDATE": "2016-04-05T00:00:00.000Z", "VAL_METHOD": "IMAGERY", "VAL_DATE": "2013-11-08T00:00:00.000Z", "WEBSITE": "http:\/\/www.westchesterhospital.com", "STATE_ID": "9962", "ALT_NAME": "NOT AVAILABLE", "ST_FIPS": "12", "OWNER": "PROPRIETARY", "TTL_STAFF": -999, "BEDS": 197, "TRAUMA": "NOT AVAILABLE", "HELIPAD": "NOT AVAILABLE", "DATECREATE": "2012-11-16T00:00:00.000Z", "Category_1": -9999, "Category_2": -9999, "Category_3": -9999, "Category_4": -9999, "Category_5": 1, "Low_Cat": 5 }, "bbox": [ -80.31745584699996243, 25.74750935700006238, -80.31745584699996243, 25.74750935700006238 ], "geometry": { "type": "Point", "coordinates": [ -80.31745584699996243, 25.74750935700006238 ] } },
{ "type": "Feature", "properties": { "OBJECTID": 3085, "ID": "1580", "NAME": "MIAMI MEDICAL CENTER", "ADDRESS": "5959 NW 7TH ST", "ADDRESS2": "NOT AVAILABLE", "CITY": "MIAMI", "STATE": "FL", "ZIP": "33126", "ZIP4": "NOT AVAILABLE", "TELEPHONE": "(305) 264-1000", "TYPE": "GENERAL ACUTE CARE", "STATUS": "OPEN", "POPULATION": 146, "COUNTY": "MIAMI-DADE", "COUNTYFIPS": "12086", "COUNTRY": "USA", "LATITUDE": 25.77831589, "LONGITUDE": -80.29358797, "NAICS_CODE": "622110", "NAICS_DESC": "GENERAL MEDICAL AND SURGICAL HOSPITALS", "SOURCE": "http:\/\/www.floridahealthfinder.gov\/facilitylocator\/facilitysearch.aspx", "SOURCEDATE": "2016-04-05T00:00:00.000Z", "VAL_METHOD": "IMAGERY", "VAL_DATE": "2016-04-11T00:00:00.000Z", "WEBSITE": "www.miamimedicalcenter.com", "STATE_ID": "9891", "ALT_NAME": "NOT AVAILABLE", "ST_FIPS": "12", "OWNER": "PROPRIETARY", "TTL_STAFF": -999, "BEDS": 146, "TRAUMA": "NOT AVAILABLE", "HELIPAD": "NOT AVAILABLE", "DATECREATE": "2012-11-16T00:00:00.000Z", "Category_1": -9999, "Category_2": -9999, "Category_3": -9999, "Category_4": -9999, "Category_5": 2, "Low_Cat": 5 }, "bbox": [ -80.29358796999997594, 25.77831589000005152, -80.29358796999997594, 25.77831589000005152 ], "geometry": { "type": "Point", "coordinates": [ -80.29358796999997594, 25.77831589000005152 ] } },
{ "type": "Feature", "properties": { "OBJECTID": 4529, "ID": "528", "NAME": "CORAL GABLES HOSPITAL", "ADDRESS": "3100 DOUGLAS RD", "ADDRESS2": "NOT AVAILABLE", "CITY": "CORAL GABLES", "STATE": "FL", "ZIP": "33134", "ZIP4": "NOT AVAILABLE", "TELEPHONE": "(305) 445-8461", "TYPE": "GENERAL ACUTE CARE", "STATUS": "OPEN", "POPULATION": 256, "COUNTY": "MIAMI-DADE", "COUNTYFIPS": "12086", "COUNTRY": "USA", "LATITUDE": 25.74375681, "LONGITUDE": -80.254824232000004, "NAICS_CODE": "622110", "NAICS_DESC": "GENERAL MEDICAL AND SURGICAL HOSPITALS", "SOURCE": "http:\/\/www.floridahealthfinder.gov\/facilitylocator\/facilitysearch.aspx", "SOURCEDATE": "2016-04-05T00:00:00.000Z", "VAL_METHOD": "IMAGERY", "VAL_DATE": "2013-11-07T00:00:00.000Z", "WEBSITE": "http:\/\/www.coralgableshospital.com", "STATE_ID": "9977", "ALT_NAME": "NOT AVAILABLE", "ST_FIPS": "12", "OWNER": "PROPRIETARY", "TTL_STAFF": -999, "BEDS": 256, "TRAUMA": "NOT AVAILABLE", "HELIPAD": "NOT AVAILABLE", "DATECREATE": "2012-11-16T00:00:00.000Z", "Category_1": -9999, "Category_2": -9999, "Category_3": 1, "Category_4": 3, "Category_5": 2, "Low_Cat": 3 }, "bbox": [ -80.25482423199997584, 25.74375681000003269, -80.25482423199997584, 25.74375681000003269 ], "geometry": { "type": "Point", "coordinates": [ -80.25482423199997584, 25.74375681000003269 ] } },
{ "type": "Feature", "properties": { "OBJECTID": 4530, "ID": "529", "NAME": "DOCTORS HOSPITAL", "ADDRESS": "5000 UNIVERSITY DR", "ADDRESS2": "NOT AVAILABLE", "CITY": "CORAL GABLES", "STATE": "FL", "ZIP": "33146", "ZIP4": "NOT AVAILABLE", "TELEPHONE": "(786) 308-3000", "TYPE": "GENERAL ACUTE CARE", "STATUS": "OPEN", "POPULATION": 146, "COUNTY": "MIAMI-DADE", "COUNTYFIPS": "12086", "COUNTRY": "USA", "LATITUDE": 25.724103102000001, "LONGITUDE": -80.274231080999996, "NAICS_CODE": "622110", "NAICS_DESC": "GENERAL MEDICAL AND SURGICAL HOSPITALS", "SOURCE": "http:\/\/www.floridahealthfinder.gov\/facilitylocator\/facilitysearch.aspx", "SOURCEDATE": "2016-04-05T00:00:00.000Z", "VAL_METHOD": "IMAGERY", "VAL_DATE": "2014-02-10T00:00:00.000Z", "WEBSITE": "http:\/\/www.baptisthealth.net", "STATE_ID": "9843", "ALT_NAME": "NOT AVAILABLE", "ST_FIPS": "12", "OWNER": "NON-PROFIT", "TTL_STAFF": -999, "BEDS": 146, "TRAUMA": "NOT AVAILABLE", "HELIPAD": "NOT AVAILABLE", "DATECREATE": "2012-11-16T00:00:00.000Z", "Category_1": -9999, "Category_2": -9999, "Category_3": 2, "Category_4": 3, "Category_5": 5, "Low_Cat": 3 }, "bbox": [ -80.27423108099998217, 25.72410310200007544, -80.27423108099998217, 25.72410310200007544 ], "geometry": { "type": "Point", "coordinates": [ -80.27423108099998217, 25.72410310200007544 ] } },
{ "type": "Feature", "properties": { "OBJECTID": 4538, "ID": "537", "NAME": "KENDALL REGIONAL MEDICAL CENTER", "ADDRESS": "11750 BIRD RD", "ADDRESS2": "NOT AVAILABLE", "CITY": "MIAMI", "STATE": "FL", "ZIP": "33175", "ZIP4": "NOT AVAILABLE", "TELEPHONE": "(305) 223-3000", "TYPE": "GENERAL ACUTE CARE", "STATUS": "OPEN", "POPULATION": 300, "COUNTY": "MIAMI-DADE", "COUNTYFIPS": "12086", "COUNTRY": "USA", "LATITUDE": 25.730970113000001, "LONGITUDE": -80.386067298, "NAICS_CODE": "622110", "NAICS_DESC": "GENERAL MEDICAL AND SURGICAL HOSPITALS", "SOURCE": "http:\/\/www.floridahealthfinder.gov\/facilitylocator\/facilitysearch.aspx", "SOURCEDATE": "2016-04-05T00:00:00.000Z", "VAL_METHOD": "IMAGERY", "VAL_DATE": "2013-11-07T00:00:00.000Z", "WEBSITE": "http:\/\/www.kendallmed.com", "STATE_ID": "9993", "ALT_NAME": "NOT AVAILABLE", "ST_FIPS": "12", "OWNER": "PROPRIETARY", "TTL_STAFF": -999, "BEDS": 300, "TRAUMA": "LEVEL II", "HELIPAD": "NOT AVAILABLE", "DATECREATE": "2012-11-16T00:00:00.000Z", "Category_1": -9999, "Category_2": -9999, "Category_3": -9999, "Category_4": -9999, "Category_5": 2, "Low_Cat": 5 }, "bbox": [ -80.38606729799994355, 25.73097011300006542, -80.38606729799994355, 25.73097011300006542 ], "geometry": { "type": "Point", "coordinates": [ -80.38606729799994355, 25.73097011300006542 ] } },
{ "type": "Feature", "properties": { "OBJECTID": 4547, "ID": "546", "NAME": "NICKLAUS CHILDREN'S HOSPITAL", "ADDRESS": "3100 SW 62ND AVE", "ADDRESS2": "NOT AVAILABLE", "CITY": "MIAMI", "STATE": "FL", "ZIP": "33155", "ZIP4": "NOT AVAILABLE", "TELEPHONE": "(305) 666-6511", "TYPE": "CHILDREN", "STATUS": "OPEN", "POPULATION": 272, "COUNTY": "MIAMI-DADE", "COUNTYFIPS": "12086", "COUNTRY": "USA", "LATITUDE": 25.741456241000002, "LONGITUDE": -80.29429675, "NAICS_CODE": "622110", "NAICS_DESC": "CHILDREN'S HOSPITALS, GENERAL", "SOURCE": "http:\/\/www.floridahealthfinder.gov\/facilitylocator\/facilitysearch.aspx", "SOURCEDATE": "2016-04-05T00:00:00.000Z", "VAL_METHOD": "IMAGERY", "VAL_DATE": "2014-02-10T00:00:00.000Z", "WEBSITE": "http:\/\/www.mch.com", "STATE_ID": "10120", "ALT_NAME": "NOT AVAILABLE", "ST_FIPS": "12", "OWNER": "NON-PROFIT", "TTL_STAFF": -999, "BEDS": 272, "TRAUMA": "LEVEL I PEDIATRIC", "HELIPAD": "Y", "DATECREATE": "2012-11-16T00:00:00.000Z", "Category_1": -9999, "Category_2": -9999, "Category_3": -9999, "Category_4": 1, "Category_5": 2, "Low_Cat": 4 }, "bbox": [ -80.29429674999994404, 25.74145624100003715, -80.29429674999994404, 25.74145624100003715 ], "geometry": { "type": "Point", "coordinates": [ -80.29429674999994404, 25.74145624100003715 ] } },
{ "type": "Feature", "properties": { "OBJECTID": 4549, "ID": "548", "NAME": "SISTER EMMANUEL HOSPITAL", "ADDRESS": "3663 S MIAMI AVE", "ADDRESS2": "4TH FLOOR", "CITY": "MIAMI", "STATE": "FL", "ZIP": "33133", "ZIP4": "NOT AVAILABLE", "TELEPHONE": "(305) 285-2697", "TYPE": "LONG TERM CARE", "STATUS": "OPEN", "POPULATION": 29, "COUNTY": "MIAMI-DADE", "COUNTYFIPS": "12086", "COUNTRY": "USA", "LATITUDE": 25.740033702000002, "LONGITUDE": -80.214234317000006, "NAICS_CODE": "622110", "NAICS_DESC": "GENERAL MEDICAL AND SURGICAL HOSPITALS", "SOURCE": "http:\/\/www.floridahealthfinder.gov\/facilitylocator\/facilitysearch.aspx", "SOURCEDATE": "2016-04-05T00:00:00.000Z", "VAL_METHOD": "IMAGERY", "VAL_DATE": "2014-02-10T00:00:00.000Z", "WEBSITE": "http:\/\/sisteremmanuelhospital.org\/", "STATE_ID": "150600", "ALT_NAME": "NOT AVAILABLE", "ST_FIPS": "12", "OWNER": "NON-PROFIT", "TTL_STAFF": -999, "BEDS": 29, "TRAUMA": "NOT AVAILABLE", "HELIPAD": "NOT AVAILABLE", "DATECREATE": "2012-11-16T00:00:00.000Z", "Category_1": 1, "Category_2": 4, "Category_3": 6, "Category_4": 9, "Category_5": 11, "Low_Cat": 1 }, "bbox": [ -80.21423431699997764, 25.74003370200006202, -80.21423431699997764, 25.74003370200006202 ], "geometry": { "type": "Point", "coordinates": [ -80.21423431699997764, 25.74003370200006202 ] } },
{ "type": "Feature", "properties": { "OBJECTID": 3084, "ID": "1579", "NAME": "MERCY HOSPITAL", "ADDRESS": "3663 S MIAMI AVE", "ADDRESS2": "NOT AVAILABLE", "CITY": "MIAMI", "STATE": "FL", "ZIP": "33133", "ZIP4": "NOT AVAILABLE", "TELEPHONE": "(305) 854-4400", "TYPE": "GENERAL ACUTE CARE", "STATUS": "OPEN", "POPULATION": 473, "COUNTY": "MIAMI-DADE", "COUNTYFIPS": "12086", "COUNTRY": "USA", "LATITUDE": 25.740158623, "LONGITUDE": -80.21435329000001, "NAICS_CODE": "622110", "NAICS_DESC": "GENERAL MEDICAL AND SURGICAL HOSPITALS", "SOURCE": "http:\/\/www.floridahealthfinder.gov\/facilitylocator\/facilitysearch.aspx", "SOURCEDATE": "2016-04-05T00:00:00.000Z", "VAL_METHOD": "IMAGERY", "VAL_DATE": "2016-04-11T00:00:00.000Z", "WEBSITE": "http:\/\/www.mercymiami.com", "STATE_ID": "9878", "ALT_NAME": "NOT AVAILABLE", "ST_FIPS": "12", "OWNER": "NON-PROFIT", "TTL_STAFF": -999, "BEDS": 473, "TRAUMA": "NOT AVAILABLE", "HELIPAD": "NOT AVAILABLE", "DATECREATE": "2012-11-16T00:00:00.000Z", "Category_1": 1, "Category_2": 4, "Category_3": 6, "Category_4": 9, "Category_5": 11, "Low_Cat": 1 }, "bbox": [ -80.21435328999996273, 25.74015862300007029, -80.21435328999996273, 25.74015862300007029 ], "geometry": { "type": "Point", "coordinates": [ -80.21435328999996273, 25.74015862300007029 ] } },
{ "type": "Feature", "properties": { "OBJECTID": 4528, "ID": "527", "NAME": "BAPTIST HOSPITAL OF MIAMI", "ADDRESS": "8900 N KENDALL DR", "ADDRESS2": "NOT AVAILABLE", "CITY": "MIAMI", "STATE": "FL", "ZIP": "33176", "ZIP4": "NOT AVAILABLE", "TELEPHONE": "(786) 596-1960", "TYPE": "GENERAL ACUTE CARE", "STATUS": "OPEN", "POPULATION": 672, "COUNTY": "MIAMI-DADE", "COUNTYFIPS": "12086", "COUNTRY": "USA", "LATITUDE": 25.684430047, "LONGITUDE": -80.338801861999997, "NAICS_CODE": "622110", "NAICS_DESC": "GENERAL MEDICAL AND SURGICAL HOSPITALS", "SOURCE": "http:\/\/www.floridahealthfinder.gov\/facilitylocator\/facilitysearch.aspx", "SOURCEDATE": "2016-04-05T00:00:00.000Z", "VAL_METHOD": "IMAGERY", "VAL_DATE": "2014-02-10T00:00:00.000Z", "WEBSITE": "http:\/\/www.baptisthealth.net", "STATE_ID": "9833", "ALT_NAME": "NOT AVAILABLE", "ST_FIPS": "12", "OWNER": "NON-PROFIT", "TTL_STAFF": -999, "BEDS": 672, "TRAUMA": "NOT AVAILABLE", "HELIPAD": "Y", "DATECREATE": "2012-11-16T00:00:00.000Z", "Category_1": -9999, "Category_2": -9999, "Category_3": -9999, "Category_4": -9999, "Category_5": -9999, "Low_Cat": null }, "bbox": [ -80.33880186199998263, 25.6844300470000384, -80.33880186199998263, 25.6844300470000384 ], "geometry": { "type": "Point", "coordinates": [ -80.33880186199998263, 25.6844300470000384 ] } },
{ "type": "Feature", "properties": { "OBJECTID": 4540, "ID": "539", "NAME": "LARKIN COMMUNITY HOSPITAL", "ADDRESS": "7031 SW 62ND AVE", "ADDRESS2": "NOT AVAILABLE", "CITY": "SOUTH MIAMI", "STATE": "FL", "ZIP": "33143", "ZIP4": "NOT AVAILABLE", "TELEPHONE": "(305) 284-7500", "TYPE": "GENERAL ACUTE CARE", "STATUS": "OPEN", "POPULATION": 146, "COUNTY": "MIAMI-DADE", "COUNTYFIPS": "12086", "COUNTRY": "USA", "LATITUDE": 25.705601554000001, "LONGITUDE": -80.293234743, "NAICS_CODE": "622110", "NAICS_DESC": "GENERAL MEDICAL AND SURGICAL HOSPITALS", "SOURCE": "http:\/\/www.floridahealthfinder.gov\/facilitylocator\/facilitysearch.aspx", "SOURCEDATE": "2016-04-05T00:00:00.000Z", "VAL_METHOD": "IMAGERY", "VAL_DATE": "2013-11-07T00:00:00.000Z", "WEBSITE": "http:\/\/www.larkinhospital.com", "STATE_ID": "9976", "ALT_NAME": "NOT AVAILABLE", "ST_FIPS": "12", "OWNER": "PROPRIETARY", "TTL_STAFF": -999, "BEDS": 146, "TRAUMA": "NOT AVAILABLE", "HELIPAD": "NOT AVAILABLE", "DATECREATE": "2012-11-16T00:00:00.000Z", "Category_1": -9999, "Category_2": -9999, "Category_3": -9999, "Category_4": -9999, "Category_5": 3, "Low_Cat": 5 }, "bbox": [ -80.29323474299997088, 25.70560155400004376, -80.29323474299997088, 25.70560155400004376 ], "geometry": { "type": "Point", "coordinates": [ -80.29323474299997088, 25.70560155400004376 ] } },
{ "type": "Feature", "properties": { "OBJECTID": 4556, "ID": "555", "NAME": "WEST KENDALL BAPTIST HOSPITAL", "ADDRESS": "9555 SW 162 AVE", "ADDRESS2": "NOT AVAILABLE", "CITY": "MIAMI", "STATE": "FL", "ZIP": "33196", "ZIP4": "NOT AVAILABLE", "TELEPHONE": "(786) 467-2011", "TYPE": "GENERAL ACUTE CARE", "STATUS": "OPEN", "POPULATION": 133, "COUNTY": "MIAMI-DADE", "COUNTYFIPS": "12086", "COUNTRY": "USA", "LATITUDE": 25.678165771, "LONGITUDE": -80.455955765, "NAICS_CODE": "622110", "NAICS_DESC": "GENERAL MEDICAL AND SURGICAL HOSPITALS", "SOURCE": "http:\/\/www.floridahealthfinder.gov\/facilitylocator\/facilitysearch.aspx", "SOURCEDATE": "2016-04-05T00:00:00.000Z", "VAL_METHOD": "IMAGERY", "VAL_DATE": "2014-02-10T00:00:00.000Z", "WEBSITE": "http:\/\/baptisthealth.net\/en\/facilities\/West-Kendall-Baptist-Hospital\/Pages\/default.aspx", "STATE_ID": "190800", "ALT_NAME": "NOT AVAILABLE", "ST_FIPS": "12", "OWNER": "NON-PROFIT", "TTL_STAFF": -999, "BEDS": 133, "TRAUMA": "NOT AVAILABLE", "HELIPAD": "NOT AVAILABLE", "DATECREATE": "2012-11-16T00:00:00.000Z", "Category_1": -9999, "Category_2": -9999, "Category_3": -9999, "Category_4": 2, "Category_5": 7, "Low_Cat": 4 }, "bbox": [ -80.45595576499994195, 25.67816577100006725, -80.45595576499994195, 25.67816577100006725 ], "geometry": { "type": "Point", "coordinates": [ -80.45595576499994195, 25.67816577100006725 ] } },
{ "type": "Feature", "properties": { "OBJECTID": 4560, "ID": "559", "NAME": "SOUTH MIAMI HOSPITAL", "ADDRESS": "6200 SW 73RD ST", "ADDRESS2": "NOT AVAILABLE", "CITY": "MIAMI", "STATE": "FL", "ZIP": "33143", "ZIP4": "NOT AVAILABLE", "TELEPHONE": "(786) 662-4000", "TYPE": "GENERAL ACUTE CARE", "STATUS": "OPEN", "POPULATION": 374, "COUNTY": "MIAMI-DADE", "COUNTYFIPS": "12086", "COUNTRY": "USA", "LATITUDE": 25.702107773000002, "LONGITUDE": -80.294273176999994, "NAICS_CODE": "622110", "NAICS_DESC": "GENERAL MEDICAL AND SURGICAL HOSPITALS", "SOURCE": "http:\/\/www.floridahealthfinder.gov\/facilitylocator\/facilitysearch.aspx", "SOURCEDATE": "2016-04-05T00:00:00.000Z", "VAL_METHOD": "IMAGERY", "VAL_DATE": "2014-02-10T00:00:00.000Z", "WEBSITE": "http:\/\/www.baptisthealth.net", "STATE_ID": "9954", "ALT_NAME": "NOT AVAILABLE", "ST_FIPS": "12", "OWNER": "NON-PROFIT", "TTL_STAFF": -999, "BEDS": 374, "TRAUMA": "NOT AVAILABLE", "HELIPAD": "NOT AVAILABLE", "DATECREATE": "2012-11-16T00:00:00.000Z", "Category_1": -9999, "Category_2": -9999, "Category_3": -9999, "Category_4": -9999, "Category_5": 1, "Low_Cat": 5 }, "bbox": [ -80.29427317699996536, 25.70210777300002647, -80.29427317699996536, 25.70210777300002647 ], "geometry": { "type": "Point", "coordinates": [ -80.29427317699996536, 25.70210777300002647 ] } },
{ "type": "Feature", "properties": { "OBJECTID": 4537, "ID": "536", "NAME": "JACKSON SOUTH COMMUNITY HOSPITAL", "ADDRESS": "9333 SW 152ND ST", "ADDRESS2": "NOT AVAILABLE", "CITY": "MIAMI", "STATE": "FL", "ZIP": "33157", "ZIP4": "NOT AVAILABLE", "TELEPHONE": "(305) 251-2500", "TYPE": "GENERAL ACUTE CARE", "STATUS": "OPEN", "POPULATION": 230, "COUNTY": "MIAMI-DADE", "COUNTYFIPS": "12086", "COUNTRY": "USA", "LATITUDE": 25.629744752000001, "LONGITUDE": -80.34469732, "NAICS_CODE": "622110", "NAICS_DESC": "GENERAL MEDICAL AND SURGICAL HOSPITALS", "SOURCE": "http:\/\/www.floridahealthfinder.gov\/facilitylocator\/facilitysearch.aspx", "SOURCEDATE": "2016-04-05T00:00:00.000Z", "VAL_METHOD": "IMAGERY", "VAL_DATE": "2014-02-10T00:00:00.000Z", "WEBSITE": "http:\/\/www.jacksonhealth.org\/jackson-south.asp", "STATE_ID": "9992", "ALT_NAME": "NOT AVAILABLE", "ST_FIPS": "12", "OWNER": "NON-PROFIT", "TTL_STAFF": -999, "BEDS": 230, "TRAUMA": "NOT AVAILABLE", "HELIPAD": "NOT AVAILABLE", "DATECREATE": "2012-11-16T00:00:00.000Z", "Category_1": -9999, "Category_2": -9999, "Category_3": -9999, "Category_4": -9999, "Category_5": 2, "Low_Cat": 5 }, "bbox": [ -80.34469731999996611, 25.62974475200007163, -80.34469731999996611, 25.62974475200007163 ], "geometry": { "type": "Point", "coordinates": [ -80.34469731999996611, 25.62974475200007163 ] } },
{ "type": "Feature", "properties": { "OBJECTID": 4532, "ID": "531", "NAME": "HEALTHSOUTH REHABILITATION HOSPITAL OF MIAMI", "ADDRESS": "20601 OLD CUTLER RD", "ADDRESS2": "NOT AVAILABLE", "CITY": "MIAMI", "STATE": "FL", "ZIP": "33189", "ZIP4": "NOT AVAILABLE", "TELEPHONE": "(305) 251-3800", "TYPE": "REHABILITATION", "STATUS": "OPEN", "POPULATION": 60, "COUNTY": "MIAMI-DADE", "COUNTYFIPS": "12086", "COUNTRY": "USA", "LATITUDE": 25.574849867000001, "LONGITUDE": -80.340978934000006, "NAICS_CODE": "622110", "NAICS_DESC": "GENERAL MEDICAL AND SURGICAL HOSPITALS", "SOURCE": "http:\/\/www.floridahealthfinder.gov\/facilitylocator\/facilitysearch.aspx", "SOURCEDATE": "2016-04-05T00:00:00.000Z", "VAL_METHOD": "IMAGERY", "VAL_DATE": "2013-11-07T00:00:00.000Z", "WEBSITE": "http:\/\/www.healthsouthmiami.com", "STATE_ID": "10050", "ALT_NAME": "NOT AVAILABLE", "ST_FIPS": "12", "OWNER": "PROPRIETARY", "TTL_STAFF": -999, "BEDS": 60, "TRAUMA": "NOT AVAILABLE", "HELIPAD": "NOT AVAILABLE", "DATECREATE": "2012-11-16T00:00:00.000Z", "Category_1": -9999, "Category_2": -9999, "Category_3": -9999, "Category_4": 3, "Category_5": 5, "Low_Cat": 4 }, "bbox": [ -80.34097893399996337, 25.57484986700005791, -80.34097893399996337, 25.57484986700005791 ], "geometry": { "type": "Point", "coordinates": [ -80.34097893399996337, 25.57484986700005791 ] } },
{ "type": "Feature", "properties": { "OBJECTID": 4534, "ID": "533", "NAME": "HOMESTEAD HOSPITAL", "ADDRESS": "975 BAPTIST WAY", "ADDRESS2": "NOT AVAILABLE", "CITY": "HOMESTEAD", "STATE": "FL", "ZIP": "33033", "ZIP4": "NOT AVAILABLE", "TELEPHONE": "(786) 243-8000", "TYPE": "GENERAL ACUTE CARE", "STATUS": "OPEN", "POPULATION": 142, "COUNTY": "MIAMI-DADE", "COUNTYFIPS": "12086", "COUNTRY": "USA", "LATITUDE": 25.479974487, "LONGITUDE": -80.430086337000006, "NAICS_CODE": "622110", "NAICS_DESC": "GENERAL MEDICAL AND SURGICAL HOSPITALS", "SOURCE": "http:\/\/www.floridahealthfinder.gov\/facilitylocator\/facilitysearch.aspx", "SOURCEDATE": "2016-04-05T00:00:00.000Z", "VAL_METHOD": "IMAGERY", "VAL_DATE": "2014-02-10T00:00:00.000Z", "WEBSITE": "http:\/\/www.baptisthealth.net", "STATE_ID": "9929", "ALT_NAME": "NOT AVAILABLE", "ST_FIPS": "12", "OWNER": "NON-PROFIT", "TTL_STAFF": -999, "BEDS": 142, "TRAUMA": "NOT AVAILABLE", "HELIPAD": "Y", "DATECREATE": "2012-11-16T00:00:00.000Z", "Category_1": -9999, "Category_2": -9999, "Category_3": 3, "Category_4": 7, "Category_5": 9, "Low_Cat": 3 }, "bbox": [ -80.43008633699999166, 25.47997448700004952, -80.43008633699999166, 25.47997448700004952 ], "geometry": { "type": "Point", "coordinates": [ -80.43008633699999166, 25.47997448700004952 ] } },
{ "type": "Feature", "properties": { "OBJECTID": 4550, "ID": "549", "NAME": "SOUTH FLORIDA EVALUATION AND TREATMENT CENTER", "ADDRESS": "18680 SW 376 ST", "ADDRESS2": "NOT AVAILABLE", "CITY": "FLORIDA CITY", "STATE": "FL", "ZIP": "33034", "ZIP4": "NOT AVAILABLE", "TELEPHONE": "(786) 349-6000", "TYPE": "PSYCHIATRIC", "STATUS": "OPEN", "POPULATION": 238, "COUNTY": "MIAMI-DADE", "COUNTYFIPS": "12086", "COUNTRY": "USA", "LATITUDE": 25.41940645, "LONGITUDE": -80.491429750999998, "NAICS_CODE": "622110", "NAICS_DESC": "GENERAL MEDICAL AND SURGICAL HOSPITALS", "SOURCE": "http:\/\/www.floridahealthfinder.gov\/facilitylocator\/facilitysearch.aspx", "SOURCEDATE": "2016-04-05T00:00:00.000Z", "VAL_METHOD": "IMAGERY", "VAL_DATE": "2014-02-10T00:00:00.000Z", "WEBSITE": "http:\/\/www.geocarellc.com\/Locations\/SouthFloridaEvaluationandTreatmentCenter.aspx", "STATE_ID": "10160", "ALT_NAME": "NOT AVAILABLE", "ST_FIPS": "12", "OWNER": "PROPRIETARY", "TTL_STAFF": -999, "BEDS": 238, "TRAUMA": "NOT AVAILABLE", "HELIPAD": "NOT AVAILABLE", "DATECREATE": "2012-11-16T00:00:00.000Z", "Category_1": -9999, "Category_2": -9999, "Category_3": 3, "Category_4": 8, "Category_5": 10, "Low_Cat": 3 }, "bbox": [ -80.49142975099994146, 25.41940645000005361, -80.49142975099994146, 25.41940645000005361 ], "geometry": { "type": "Point", "coordinates": [ -80.49142975099994146, 25.41940645000005361 ] } }
]
}
